City_ID,City,Lat,Lng,Max Temp,Humidity,Cloudiness,Wind Speed,Country,Date,Weather,Rainfall (in) past three hours,Snowfall (in) past three hours
0,New Norfolk,-42.78,147.06,54.0,81,20,6.93,AU,2020-02-22 20:54:00,few clouds,0,0
1,Rikitea,-23.12,-134.97,78.94,70,1,7.52,PF,2020-02-22 20:50:31,clear sky,0,0
2,Lebu,-37.62,-73.65,66.42,62,15,5.06,CL,2020-02-22 21:01:44,few clouds,0,0
3,Castro,-24.79,-50.01,70.52,75,34,5.53,BR,2020-02-22 21:00:14,light rain,0.38,0
4,Punta Arenas,-53.15,-70.92,73.4,40,100,27.51,CL,2020-02-22 20:48:58,overcast clouds,0,0
5,Mataura,-46.19,168.86,57.99,77,70,13.0,NZ,2020-02-22 20:50:21,broken clouds,0,0
6,Kruisfontein,-34.0,24.73,63.36,84,100,16.15,ZA,2020-02-22 21:01:45,light rain,1.69,0
7,Vestmanna,62.16,-7.17,35.6,74,45,9.17,FO,2020-02-22 21:01:45,scattered clouds,0,0
8,Cidreira,-30.18,-50.21,70.93,67,15,17.34,BR,2020-02-22 21:01:45,light rain,0.25,0
9,Acarau,-2.89,-40.12,74.1,96,100,6.11,BR,2020-02-22 21:01:45,light rain,0.81,0
10,Mahebourg,-20.41,57.7,77.0,88,40,2.24,MU,2020-02-22 21:01:45,scattered clouds,0,0
11,Natal,-5.79,-35.21,84.2,79,75,11.41,BR,2020-02-22 21:01:45,broken clouds,0,0
12,Buraydah,26.33,43.98,66.2,39,0,11.41,SA,2020-02-22 20:54:29,clear sky,0,0
13,Ushuaia,-54.8,-68.3,73.4,38,40,13.87,AR,2020-02-22 20:48:52,scattered clouds,0,0
14,Guerrero Negro,27.98,-114.06,63.82,63,100,14.65,MX,2020-02-22 21:01:46,overcast clouds,0,0
15,Yellowknife,62.46,-114.35,3.99,65,20,6.93,CA,2020-02-22 20:50:28,few clouds,0,0
16,Rio Claro,-22.41,-47.56,78.8,69,20,13.87,BR,2020-02-22 21:00:28,few clouds,0,0
17,Lasa,46.62,10.7,42.8,73,100,2.24,IT,2020-02-22 21:01:47,overcast clouds,0,0
18,Lucea,18.45,-78.17,82.4,74,20,13.87,JM,2020-02-22 21:01:47,few clouds,0,0
19,Georgetown,5.41,100.34,80.6,69,20,9.17,MY,2020-02-22 21:01:47,few clouds,0,0
20,Faanui,-16.48,-151.75,82.04,74,49,9.24,PF,2020-02-22 21:01:47,light rain,0.63,0
21,Adrar,20.5,-10.07,83.16,10,95,11.59,MR,2020-02-22 21:01:48,overcast clouds,0,0
22,Ponta Do Sol,32.67,-17.1,69.01,77,20,18.34,PT,2020-02-22 20:53:35,few clouds,0,0
23,Dikson,73.51,80.55,16.52,93,100,25.37,RU,2020-02-22 21:01:48,light snow,0,0.81
24,Souillac,-20.52,57.52,77.0,88,40,2.24,MU,2020-02-22 21:01:48,scattered clouds,0,0
25,Bradford,53.79,-1.75,46.0,86,40,26.4,GB,2020-02-22 21:01:02,scattered clouds,0,0
26,Bredasdorp,-34.53,20.04,66.2,68,93,11.41,ZA,2020-02-22 20:53:45,overcast clouds,0,0
27,Jamestown,42.1,-79.24,39.2,44,1,17.22,US,2020-02-22 20:49:20,clear sky,0,0
28,Tasiilaq,65.61,-37.64,6.04,64,100,5.61,GL,2020-02-22 21:01:49,overcast clouds,0,0
29,Chokurdakh,70.63,147.92,-13.88,97,100,1.48,RU,2020-02-22 21:01:49,overcast clouds,0,0
30,San Cristobal,7.77,-72.22,84.2,62,40,11.41,VE,2020-02-22 21:01:49,haze,0,0
31,Upernavik,72.79,-56.15,-15.9,94,78,4.88,GL,2020-02-22 21:01:50,broken clouds,0,0
32,Airai,-8.93,125.41,66.29,82,8,4.83,TL,2020-02-22 21:01:50,clear sky,0,0
33,Qinggang,46.68,126.08,3.56,85,0,5.17,CN,2020-02-22 21:01:50,clear sky,0,0
34,Tuatapere,-46.13,167.68,57.99,78,32,17.0,NZ,2020-02-22 21:01:50,scattered clouds,0,0
35,Kaitangata,-46.28,169.85,54.0,67,66,5.99,NZ,2020-02-22 20:57:55,broken clouds,0,0
36,Nikolskoye,59.7,30.79,35.01,93,90,15.66,RU,2020-02-22 21:01:51,shower sleet,0,0
37,Barcelos,41.54,-8.62,59.0,81,0,4.7,PT,2020-02-22 20:57:09,clear sky,0,0
38,Fontem,5.47,9.88,68.4,63,42,1.74,CM,2020-02-22 21:01:51,scattered clouds,0,0
39,Codrington,-38.27,141.97,58.05,77,0,7.23,AU,2020-02-22 20:54:51,clear sky,0,0
40,Vaini,-21.2,-175.2,78.8,94,75,9.17,TO,2020-02-22 21:01:51,broken clouds,0,0
41,Longyearbyen,78.22,15.64,-0.4,70,20,14.99,SJ,2020-02-22 21:01:52,few clouds,0,0
42,Carutapera,-1.2,-46.02,81.95,75,20,4.16,BR,2020-02-22 21:01:52,few clouds,0,0
43,Grindavik,63.84,-22.43,30.2,74,100,4.7,IS,2020-02-22 21:01:52,overcast clouds,0,0
44,Port Elizabeth,-33.92,25.57,67.01,76,100,17.49,ZA,2020-02-22 20:53:47,light rain,0.94,0
45,Meulaboh,4.14,96.13,83.14,69,93,5.21,ID,2020-02-22 21:01:52,light rain,1.13,0
46,Atuona,-9.8,-139.03,81.86,76,0,13.73,PF,2020-02-22 21:01:53,light rain,0.31,0
47,Busselton,-33.65,115.33,66.99,68,5,10.8,AU,2020-02-22 21:01:53,clear sky,0,0
48,Pacific Grove,36.62,-121.92,66.99,72,90,14.99,US,2020-02-22 20:58:42,overcast clouds,0,0
49,Burgeo,47.62,-57.62,29.68,79,100,29.89,CA,2020-02-22 21:01:53,light snow,0,0.38
50,Venado Tuerto,-33.75,-61.97,78.01,33,0,7.56,AR,2020-02-22 21:01:53,clear sky,0,0
51,Odweyne,9.41,45.06,72.54,32,20,10.58,SO,2020-02-22 21:01:53,few clouds,0,0
52,Aksu,41.12,80.26,33.46,49,0,4.85,CN,2020-02-22 21:01:54,clear sky,0,0
53,Puerto Ayora,-0.74,-90.35,82.4,83,75,9.17,EC,2020-02-22 20:48:56,shower rain,0,0
54,Loa Janan,-0.58,117.09,73.35,85,34,2.93,ID,2020-02-22 21:01:54,scattered clouds,0,0
55,Mar Del Plata,-38.0,-57.56,62.6,67,0,13.87,AR,2020-02-22 20:58:00,clear sky,0,0
56,Albany,42.6,-73.97,44.01,55,1,16.11,US,2020-02-22 20:53:35,clear sky,0,0
57,Tabas,33.6,56.92,57.2,50,0,4.7,IR,2020-02-22 21:01:55,clear sky,0,0
58,Lagoa,39.05,-27.98,59.61,81,0,10.2,PT,2020-02-22 21:01:55,clear sky,0,0
59,Rolla,37.95,-91.77,54.0,22,1,13.87,US,2020-02-22 21:00:51,clear sky,0,0
60,Butaritari,3.07,172.79,83.89,75,94,6.55,KI,2020-02-22 21:01:55,overcast clouds,0,0
61,Nome,64.5,-165.41,-20.2,82,1,3.24,US,2020-02-22 20:50:45,clear sky,0,0
62,Acapulco,16.86,-99.89,86.0,70,5,8.05,MX,2020-02-22 21:01:56,clear sky,0,0
63,Touros,-5.2,-35.46,82.4,78,75,10.29,BR,2020-02-22 21:01:56,broken clouds,0,0
64,Maumere,-8.62,122.21,77.13,88,100,11.32,ID,2020-02-22 21:01:56,light rain,2.44,0
65,Ulaangom,49.98,92.07,-4.92,91,59,2.8,MN,2020-02-22 21:01:56,broken clouds,0,0
66,Viseu,40.66,-7.91,59.0,60,0,1.99,PT,2020-02-22 21:01:57,clear sky,0,0
67,Vao,-22.67,167.48,79.23,73,0,10.69,NC,2020-02-22 21:01:57,clear sky,0,0
68,Tiksi,71.69,128.87,-11.67,90,90,7.4,RU,2020-02-22 21:01:57,overcast clouds,0,0
69,Port Alfred,-33.59,26.89,64.0,96,100,5.01,ZA,2020-02-22 20:49:10,light rain,2.19,0
70,Haines Junction,60.75,-137.51,12.29,93,99,6.06,CA,2020-02-22 21:01:57,light snow,0,0.31
71,Hermanus,-34.42,19.23,66.99,73,89,8.01,ZA,2020-02-22 20:49:16,overcast clouds,0,0
72,Bambous Virieux,-20.34,57.76,77.0,88,40,2.24,MU,2020-02-22 21:01:58,scattered clouds,0,0
73,Plettenberg Bay,-34.05,23.37,65.5,87,100,13.29,ZA,2020-02-22 21:01:58,light rain,1.94,0
74,Yaan,7.38,8.57,86.4,14,0,2.59,NG,2020-02-22 21:01:58,clear sky,0,0
75,Arlit,18.74,7.39,74.68,13,52,15.08,NE,2020-02-22 21:01:58,broken clouds,0,0
76,Taltal,-25.4,-70.48,69.12,62,0,7.61,CL,2020-02-22 21:01:59,clear sky,0,0
77,Victoria,22.29,114.16,64.99,77,20,21.92,HK,2020-02-22 21:00:00,few clouds,0,0
78,Hun,29.13,15.95,55.47,46,0,9.44,LY,2020-02-22 21:01:59,clear sky,0,0
79,Carazinho,-28.28,-52.79,69.8,35,0,11.41,BR,2020-02-22 21:01:59,clear sky,0,0
80,Hobart,-42.88,147.33,55.99,81,20,6.93,AU,2020-02-22 21:01:59,few clouds,0,0
81,Dvinskoy,62.15,45.12,32.68,87,93,13.94,RU,2020-02-22 21:02:00,overcast clouds,0,0
82,Vardo,70.37,31.11,33.4,82,5,25.99,NO,2020-02-22 21:02:00,clear sky,0,0
83,The Valley,18.22,-63.06,82.0,69,75,2.24,AI,2020-02-22 20:57:50,broken clouds,0,0
84,Bulgan,48.81,103.53,15.71,70,88,3.87,MN,2020-02-22 21:02:00,overcast clouds,0,0
85,Doka,13.52,35.77,76.55,22,0,11.1,SD,2020-02-22 21:02:00,clear sky,0,0
86,Kirakira,-10.45,161.92,79.99,82,0,4.76,SB,2020-02-22 21:02:01,clear sky,0,0
87,Kapaa,22.08,-159.32,78.8,69,75,5.82,US,2020-02-22 20:53:35,broken clouds,0,0
88,Titron,29.67,77.32,57.61,81,0,3.53,IN,2020-02-22 21:02:01,clear sky,0,0
89,Pevek,69.7,170.31,-12.15,98,100,10.78,RU,2020-02-22 21:02:01,light snow,0,0.13
90,Saskylakh,71.92,114.08,-13.74,93,39,5.1,RU,2020-02-22 20:53:57,scattered clouds,0,0
91,Kurchum,48.57,83.65,29.26,96,100,13.04,KZ,2020-02-22 21:02:02,snow,0,2.38
92,Bonthe,7.53,-12.51,81.18,84,62,7.2,SL,2020-02-22 21:02:02,broken clouds,0,0
93,Oussouye,12.48,-16.55,80.6,74,73,6.93,SN,2020-02-22 21:02:02,broken clouds,0,0
94,Roma,43.21,-75.46,42.01,55,40,13.87,US,2020-02-22 21:01:18,scattered clouds,0,0
95,Evensk,61.95,159.23,-13.77,77,95,4.23,RU,2020-02-22 21:02:02,overcast clouds,0,0
96,New Glasgow,45.58,-62.65,34.0,70,97,8.01,CA,2020-02-22 20:57:21,light snow,0,0.25
97,Markova,48.68,24.41,32.0,76,100,16.22,UA,2020-02-22 21:02:03,overcast clouds,0,0
98,Rawson,-43.3,-65.1,72.46,42,0,24.87,AR,2020-02-22 21:02:03,clear sky,0,0
99,Riyadh,24.69,46.72,68.0,34,0,6.93,SA,2020-02-22 21:00:05,clear sky,0,0
100,Severo-Kurilsk,50.68,156.12,7.7,89,31,0.74,RU,2020-02-22 20:57:42,scattered clouds,0,0
101,Bengkulu,-3.8,102.27,73.42,89,2,4.56,ID,2020-02-22 21:02:04,clear sky,0,0
102,Kodiak,57.79,-152.41,19.4,52,1,16.11,US,2020-02-22 21:02:04,clear sky,0,0
103,Kavaratti,10.57,72.64,81.79,76,67,8.39,IN,2020-02-22 21:02:04,broken clouds,0,0
104,Bethel,41.37,-73.41,50.0,20,1,10.29,US,2020-02-22 21:00:58,clear sky,0,0
105,Waingapu,-9.66,120.26,82.98,78,100,20.67,ID,2020-02-22 21:02:05,light rain,0.5,0
106,Saint-Augustin,51.23,-58.65,21.63,87,100,21.74,CA,2020-02-22 21:02:05,overcast clouds,0,0
107,Sierra Vista,31.55,-110.3,60.01,76,90,6.93,US,2020-02-22 20:58:39,light rain,0,0
108,Mizan Teferi,6.98,35.58,68.32,76,0,2.21,ET,2020-02-22 21:02:05,light rain,0.25,0
109,Carnarvon,-24.87,113.63,75.2,83,0,4.7,AU,2020-02-22 20:54:29,clear sky,0,0
110,Arraial Do Cabo,-22.97,-42.03,78.8,83,40,9.17,BR,2020-02-22 20:59:15,scattered clouds,0,0
111,Kungurtug,50.6,97.52,13.21,95,100,1.92,RU,2020-02-22 21:02:06,light snow,0,0.19
112,Ereymentau,51.62,73.1,13.42,97,97,3.02,KZ,2020-02-22 21:02:06,light snow,0,0.13
113,Jeremie,18.65,-74.12,72.95,83,58,4.72,HT,2020-02-22 21:02:06,light rain,1.75,0
114,Port-Cartier,50.03,-66.87,33.8,69,75,11.41,CA,2020-02-22 21:02:06,broken clouds,0,0
115,Bubaque,11.28,-15.83,79.5,71,100,19.66,GW,2020-02-22 21:02:06,overcast clouds,0,0
116,Antofagasta,-23.65,-70.4,72.0,68,20,14.99,CL,2020-02-22 21:00:03,few clouds,0,0
117,Yar-Sale,66.83,70.83,20.55,90,93,18.79,RU,2020-02-22 21:02:07,overcast clouds,0,0
118,Saldanha,-33.01,17.94,68.0,72,85,14.99,ZA,2020-02-22 20:53:34,overcast clouds,0,0
119,Kahului,20.89,-156.47,78.8,57,40,12.75,US,2020-02-22 21:02:07,scattered clouds,0,0
120,Cherskiy,68.75,161.3,-20.52,97,96,4.97,RU,2020-02-22 20:57:58,overcast clouds,0,0
121,Smithers,54.78,-127.17,35.6,51,20,10.29,CA,2020-02-22 21:02:08,few clouds,0,0
122,Geraldton,-28.77,114.6,69.8,94,0,6.93,AU,2020-02-22 20:54:58,clear sky,0,0
123,Bongandanga,1.5,21.05,78.82,49,0,2.46,CD,2020-02-22 21:02:08,clear sky,0,0
124,Shubarkuduk,49.14,56.49,15.03,92,72,7.78,KZ,2020-02-22 21:02:08,broken clouds,0,0
125,Worcester,42.33,-71.83,46.99,32,1,12.75,US,2020-02-22 21:01:50,clear sky,0,0
126,Kibi,6.16,-0.55,81.07,80,83,5.12,GH,2020-02-22 21:02:09,broken clouds,0,0
127,Ribeira Grande,38.52,-28.7,59.0,72,75,6.93,PT,2020-02-22 21:02:09,broken clouds,0,0
128,Izumo,35.37,132.77,44.6,52,75,13.87,JP,2020-02-22 21:02:09,broken clouds,0,0
129,Lakatoro,-16.1,167.42,75.2,100,20,1.12,VU,2020-02-22 21:02:09,few clouds,0,0
130,Dalbandin,28.89,64.41,63.18,31,0,4.63,PK,2020-02-22 21:02:10,clear sky,0,0
131,Misrikh,27.45,80.52,61.12,67,12,4.38,IN,2020-02-22 21:02:10,few clouds,0,0
132,Kedrovyy,56.17,91.82,23.0,85,75,1.92,RU,2020-02-22 21:02:10,light snow,0,0
133,Buta,2.79,24.73,82.18,35,95,3.0,CD,2020-02-22 21:02:10,overcast clouds,0,0
134,Kathu,7.92,98.33,80.6,69,20,12.75,TH,2020-02-22 21:02:10,few clouds,0,0
135,High Rock,26.62,-78.28,69.37,66,0,22.55,BS,2020-02-22 21:02:10,clear sky,0,0
136,Klaksvik,62.23,-6.59,35.6,74,96,9.17,FO,2020-02-22 21:02:11,overcast clouds,0,0
137,Port Moresby,-9.44,147.18,77.0,94,40,8.05,PG,2020-02-22 21:02:11,scattered clouds,0,0
138,Bad Wildungen,51.12,9.12,48.0,87,75,13.87,DE,2020-02-22 21:02:11,light intensity drizzle rain,0,0
139,Bluff,-46.6,168.33,57.99,78,68,17.0,NZ,2020-02-22 21:02:11,light rain,0.19,0
140,Nantucket,41.28,-70.1,42.01,38,1,21.92,US,2020-02-22 21:02:12,clear sky,0,0
141,Namibe,-15.2,12.15,75.34,79,100,15.39,AO,2020-02-22 21:02:12,overcast clouds,0,0
142,Anadyr,64.75,177.48,-16.6,75,0,6.71,RU,2020-02-22 21:02:12,clear sky,0,0
143,Aklavik,68.22,-135.01,-0.4,84,90,6.93,CA,2020-02-22 21:02:12,light snow,0,0
144,Leningradskiy,69.38,178.42,-12.59,95,100,9.93,RU,2020-02-22 21:02:12,light snow,0,0.13
145,Businga,3.33,20.88,80.2,30,7,2.42,CD,2020-02-22 21:02:13,clear sky,0,0
146,Hilo,19.73,-155.09,77.0,65,20,6.93,US,2020-02-22 20:54:09,few clouds,0,0
147,Ejido,8.55,-71.24,57.33,89,100,1.7,VE,2020-02-22 21:02:13,light rain,1.13,0
148,Avarua,-21.21,-159.78,84.2,83,69,9.17,CK,2020-02-22 21:02:13,light rain,1.94,0
149,Bilma,18.69,12.92,71.37,14,100,13.78,NE,2020-02-22 21:02:13,overcast clouds,0,0
150,Muyezerskiy,63.93,31.65,31.84,95,100,19.1,RU,2020-02-22 21:02:14,snow,0,1.63
151,Usakos,-22.0,15.6,76.84,53,50,1.86,NA,2020-02-22 21:02:14,scattered clouds,0,0
152,Dandong,40.13,124.39,28.0,63,0,2.57,CN,2020-02-22 21:00:12,clear sky,0,0
153,Togul,53.47,85.91,16.97,92,100,6.17,RU,2020-02-22 21:02:14,overcast clouds,0,0
154,Henties Bay,-22.12,14.28,64.99,87,0,1.99,NA,2020-02-22 21:02:14,clear sky,0,0
155,Yichang,30.71,111.28,49.57,74,100,1.34,CN,2020-02-22 21:02:15,overcast clouds,0,0
156,Portland,45.52,-122.68,57.0,57,75,4.7,US,2020-02-22 20:58:48,broken clouds,0,0
157,Velika Gorica,45.71,16.08,48.0,64,100,2.24,HR,2020-02-22 21:02:15,overcast clouds,0,0
158,Hualmay,-11.1,-77.61,79.75,52,92,8.1,PE,2020-02-22 21:02:15,overcast clouds,0,0
159,Bambanglipuro,-7.95,110.28,74.84,91,29,1.79,ID,2020-02-22 21:02:15,light rain,1,0
160,Albion,42.24,-84.75,45.0,39,1,11.41,US,2020-02-22 21:02:16,clear sky,0,0
161,Chimbote,-9.09,-78.58,82.99,49,100,9.46,PE,2020-02-22 21:02:16,overcast clouds,0,0
162,Vryburg,-26.96,24.73,67.98,78,63,4.54,ZA,2020-02-22 21:02:16,broken clouds,0,0
163,Chuy,-33.7,-53.46,67.87,62,31,11.77,UY,2020-02-22 21:02:16,scattered clouds,0,0
164,Gao,16.64,1.64,81.81,9,85,14.76,ML,2020-02-22 21:02:16,overcast clouds,0,0
165,Uray,60.12,64.78,25.3,91,100,9.31,RU,2020-02-22 21:02:16,overcast clouds,0,0
166,Coahuayana,18.73,-103.68,86.0,42,40,9.17,MX,2020-02-22 21:02:17,scattered clouds,0,0
167,Benicarlo,40.42,0.43,46.0,87,42,1.99,ES,2020-02-22 21:02:17,scattered clouds,0,0
168,Khandyga,62.67,135.6,-4.25,98,98,1.7,RU,2020-02-22 21:02:17,overcast clouds,0,0
169,Pergamino,-33.89,-60.57,82.99,35,0,1.99,AR,2020-02-22 21:02:17,clear sky,0,0
170,Najran,17.49,44.13,75.2,29,12,1.97,SA,2020-02-22 21:02:17,few clouds,0,0
171,Matai,-8.3,31.52,64.4,93,40,1.77,TZ,2020-02-22 21:02:17,scattered clouds,0,0
172,Thompson,55.74,-97.86,24.8,53,20,4.7,CA,2020-02-22 20:57:24,few clouds,0,0
173,Qaanaaq,77.48,-69.36,-14.08,64,99,4.52,GL,2020-02-22 20:49:33,overcast clouds,0,0
174,Sao Filipe,14.9,-24.5,67.42,82,84,20.85,CV,2020-02-22 21:02:18,broken clouds,0,0
175,Tabora,-5.02,32.8,73.4,88,20,4.47,TZ,2020-02-22 21:02:18,few clouds,0,0
176,Lompoc,34.64,-120.46,63.0,67,20,8.05,US,2020-02-22 21:00:48,few clouds,0,0
177,Camacha,33.08,-16.33,64.4,88,40,27.51,PT,2020-02-22 21:02:18,scattered clouds,0,0
178,Alofi,-19.06,-169.92,82.4,83,75,8.05,NU,2020-02-22 21:02:19,broken clouds,0,0
179,Nouadhibou,20.93,-17.03,64.4,77,20,16.11,MR,2020-02-22 21:02:19,few clouds,0,0
180,Lac Du Bonnet,50.25,-96.06,37.0,57,66,4.16,CA,2020-02-22 21:02:19,broken clouds,0,0
181,Bilibino,68.05,166.44,-24.41,99,100,2.44,RU,2020-02-22 21:02:19,overcast clouds,0,0
182,Fairbanks,64.84,-147.72,12.2,84,90,8.05,US,2020-02-22 21:01:08,overcast clouds,0,0
183,Hami,42.8,93.45,29.79,53,9,4.85,CN,2020-02-22 21:01:29,clear sky,0,0
184,Conceicao Do Araguaia,-8.26,-49.26,87.8,62,100,6.93,BR,2020-02-22 21:02:20,overcast clouds,0,0
185,Outlook,51.5,-107.05,33.01,74,87,7.0,CA,2020-02-22 21:02:20,overcast clouds,0,0
186,Russell,32.35,-85.2,57.99,22,1,3.36,US,2020-02-22 21:02:20,clear sky,0,0
187,Loandjili,-4.76,11.86,84.2,83,40,2.24,CG,2020-02-22 21:02:21,thunderstorm,0,0
188,Flin Flon,54.77,-101.86,41.0,44,40,10.29,CA,2020-02-22 21:02:21,scattered clouds,0,0
189,Coihaique,-45.58,-72.07,82.4,18,0,10.29,CL,2020-02-22 21:02:21,clear sky,0,0
190,Shelburne,44.08,-80.2,41.0,55,1,11.41,CA,2020-02-22 21:02:21,clear sky,0,0
191,Cape Town,-33.93,18.42,66.99,77,20,25.28,ZA,2020-02-22 20:53:35,few clouds,0,0
192,Rio Tercero,-32.17,-64.11,81.09,16,15,11.54,AR,2020-02-22 21:02:21,few clouds,0,0
193,Farafangana,-22.82,47.83,79.48,80,95,14.79,MG,2020-02-22 21:02:04,light rain,2.56,0
194,Port-Gentil,-0.72,8.78,82.4,88,20,5.82,GA,2020-02-22 21:02:22,few clouds,0,0
195,Arkhangelsk,64.54,40.54,35.6,74,90,17.9,RU,2020-02-22 21:02:22,overcast clouds,0,0
196,Quesnel,53.0,-122.5,37.4,37,1,6.93,CA,2020-02-22 20:58:22,clear sky,0,0
197,Provideniya,64.38,-173.3,-14.6,87,18,2.73,RU,2020-02-22 21:02:22,few clouds,0,0
198,Norman Wells,65.28,-126.83,6.8,77,75,4.7,CA,2020-02-22 21:02:22,light snow,0,0
199,Broome,42.25,-75.83,45.0,44,1,6.93,US,2020-02-22 20:53:57,clear sky,0,0
200,Tahoua,14.89,5.27,75.63,10,1,13.49,NE,2020-02-22 21:02:23,clear sky,0,0
201,Saint George,37.1,-113.58,62.6,57,75,19.46,US,2020-02-22 21:02:04,broken clouds,0,0
202,Atar,20.52,-13.05,77.2,11,97,4.32,MR,2020-02-22 21:02:23,overcast clouds,0,0
203,Puerto Leguizamo,-0.19,-74.78,94.06,44,93,3.33,CO,2020-02-22 21:00:05,overcast clouds,0,0
204,Hasaki,35.73,140.83,48.2,48,20,3.36,JP,2020-02-22 21:02:23,few clouds,0,0
205,Tuktoyaktuk,69.45,-133.04,3.2,84,90,6.93,CA,2020-02-22 21:02:24,light snow,0,0
206,Sisimiut,66.94,-53.67,-3.98,81,100,5.12,GL,2020-02-22 21:02:24,overcast clouds,0,0
207,Rocha,-34.48,-54.33,64.8,60,32,9.98,UY,2020-02-22 21:01:26,scattered clouds,0,0
208,Poum,-20.23,164.02,80.56,81,0,18.79,NC,2020-02-22 21:02:24,light rain,0.56,0
209,Leua,48.22,18.61,44.01,92,100,5.68,SK,2020-02-22 21:02:24,overcast clouds,0,0
210,Tema,5.67,-0.02,82.24,88,80,15.12,GH,2020-02-22 21:02:24,broken clouds,0,0
211,Tarboro,35.9,-77.54,54.0,39,1,6.93,US,2020-02-22 21:02:25,clear sky,0,0
212,Maarianhamina,60.1,19.93,41.0,65,100,14.99,AX,2020-02-22 21:02:25,overcast clouds,0,0
213,Ahuimanu,21.44,-157.84,77.0,94,75,3.36,US,2020-02-22 21:02:25,light rain,0,0
214,Khatanga,71.97,102.5,6.87,83,100,14.27,RU,2020-02-22 21:02:25,overcast clouds,0,0
215,San Lawrenz,36.06,14.2,55.4,66,75,10.29,MT,2020-02-22 21:02:26,broken clouds,0,0
216,Sarangani,5.4,125.46,80.56,76,58,20.15,PH,2020-02-22 21:02:26,broken clouds,0,0
217,Sao Paulo De Olivenca,-3.38,-68.87,81.64,87,99,2.86,BR,2020-02-22 21:02:26,light rain,0.94,0
218,Wajir,1.75,40.06,86.05,57,42,19.75,KE,2020-02-22 21:02:26,scattered clouds,0,0
219,Naples,40.83,14.25,55.0,45,9,6.93,IT,2020-02-22 21:00:17,clear sky,0,0
220,Araras,-22.36,-47.38,78.8,69,20,13.87,BR,2020-02-22 21:01:08,few clouds,0,0
221,San Patricio,19.22,-104.7,84.2,74,20,11.41,MX,2020-02-22 20:58:00,few clouds,0,0
222,Ilulissat,69.22,-51.1,-0.4,49,40,2.24,GL,2020-02-22 21:02:27,scattered clouds,0,0
223,Necochea,-38.55,-58.74,71.01,71,0,5.01,AR,2020-02-22 21:00:50,clear sky,0,0
224,Jinchang,38.5,102.17,33.19,21,0,3.65,CN,2020-02-22 21:02:27,clear sky,0,0
225,Moose Factory,51.26,-80.61,41.0,41,75,14.99,CA,2020-02-22 21:01:42,broken clouds,0,0
226,Keetmanshoop,-26.58,18.13,84.2,13,7,11.41,NA,2020-02-22 21:02:28,clear sky,0,0
227,Ashtabula,41.7,-80.77,48.0,35,1,10.29,US,2020-02-22 21:02:28,clear sky,0,0
228,Mandalgovi,45.76,106.27,19.24,58,100,9.66,MN,2020-02-22 21:02:28,overcast clouds,0,0
229,Murwillumbah,-28.32,153.4,71.01,88,75,5.82,AU,2020-02-22 21:01:36,broken clouds,0,0
230,Barrow,71.29,-156.79,-11.2,76,90,5.82,US,2020-02-22 21:02:29,light snow,0,0
231,Mayo,38.89,-76.51,55.99,18,1,9.17,US,2020-02-22 20:53:38,clear sky,0,0
232,Flinders,-34.58,150.86,69.01,80,100,8.97,AU,2020-02-22 21:02:29,light rain,0.13,0
233,Bathsheba,13.22,-59.52,82.4,65,20,10.29,BB,2020-02-22 21:02:29,few clouds,0,0
234,Puerto Madero,14.72,-92.42,89.6,52,20,8.05,MX,2020-02-22 21:02:30,few clouds,0,0
235,Lorengau,-2.02,147.27,82.4,75,52,7.67,PG,2020-02-22 21:02:30,broken clouds,0,0
236,Hamilton,39.18,-84.53,51.01,21,1,12.75,US,2020-02-22 21:00:14,clear sky,0,0
237,Arauco,-37.25,-73.32,66.2,63,20,10.29,CL,2020-02-22 20:59:58,few clouds,0,0
238,Pedernales,18.04,-71.74,89.6,52,40,20.8,DO,2020-02-22 21:02:30,scattered clouds,0,0
239,Torbay,47.67,-52.73,25.0,62,20,18.34,CA,2020-02-22 21:02:31,few clouds,0,0
240,Miri,4.41,114.01,77.0,100,75,4.7,MY,2020-02-22 21:02:31,broken clouds,0,0
241,Itarema,-2.92,-39.92,74.1,96,100,6.11,BR,2020-02-22 21:02:31,light rain,0.81,0
242,Shar,49.59,81.05,26.24,96,100,9.51,KZ,2020-02-22 21:02:31,snow,0,1.75
243,At-Bashi,41.17,75.81,6.57,64,49,2.21,KG,2020-02-22 21:02:32,scattered clouds,0,0
244,Mount Isa,-20.73,139.5,78.8,74,40,6.93,AU,2020-02-22 20:54:01,scattered clouds,0,0
245,Vrangel,42.73,133.08,27.27,60,0,38.86,RU,2020-02-22 21:02:32,clear sky,0,0
246,Lakselv,70.05,24.97,33.8,69,1,35.57,NO,2020-02-22 21:02:32,clear sky,0,0
247,Ahipara,-35.17,173.17,72.0,89,7,1.01,NZ,2020-02-22 21:02:32,clear sky,0,0
248,Seoul,37.57,126.98,32.0,79,1,1.12,KR,2020-02-22 21:02:00,clear sky,0,0
249,Melo,-32.37,-54.18,70.57,48,6,9.71,UY,2020-02-22 21:01:02,clear sky,0,0
250,Meadow Lake,34.8,-106.54,48.99,87,90,0.58,US,2020-02-22 21:02:33,drizzle,0,0
251,Hofn,64.25,-15.21,34.3,67,100,9.62,IS,2020-02-22 21:02:33,overcast clouds,0,0
252,Mogzon,51.74,111.96,5.45,97,93,5.55,RU,2020-02-22 21:02:33,overcast clouds,0,0
253,San Carlos De Bariloche,-41.15,-71.31,77.0,35,0,16.11,AR,2020-02-22 21:02:34,clear sky,0,0
254,Ancud,-41.87,-73.82,80.6,28,0,6.93,CL,2020-02-22 20:53:56,clear sky,0,0
255,Waipawa,-41.41,175.52,59.0,72,100,21.92,NZ,2020-02-22 21:02:34,light intensity drizzle,0,0
256,Teguldet,57.31,88.17,17.85,97,67,2.68,RU,2020-02-22 20:59:41,broken clouds,0,0
257,East London,-33.02,27.91,72.21,81,100,22.64,ZA,2020-02-22 21:02:34,light rain,1.5,0
258,Lixourion,38.2,20.43,54.3,47,0,4.5,GR,2020-02-22 21:02:35,clear sky,0,0
259,College,64.86,-147.8,12.2,84,90,8.05,US,2020-02-22 21:02:35,overcast clouds,0,0
260,Conceicao Do Coite,-11.56,-39.28,86.27,51,78,8.48,BR,2020-02-22 21:02:35,broken clouds,0,0
261,Sovkhoznyy,45.29,38.11,39.0,93,75,8.95,RU,2020-02-22 21:02:35,broken clouds,0,0
262,Koungheul,13.98,-14.8,87.08,10,88,3.62,SN,2020-02-22 21:02:35,overcast clouds,0,0
263,Srednekolymsk,67.45,153.68,-27.51,100,95,1.21,RU,2020-02-22 21:02:36,overcast clouds,0,0
264,Saint-Pierre,-21.34,55.48,75.2,69,100,4.7,RE,2020-02-22 20:54:03,overcast clouds,0,0
265,Puerto Colombia,10.99,-74.95,84.2,62,20,13.87,CO,2020-02-22 21:02:36,few clouds,0,0
266,Vorontsovka,50.61,40.35,31.17,97,99,5.68,RU,2020-02-22 21:02:36,light snow,0,0.19
267,Shenjiamen,29.96,122.3,49.73,63,0,11.14,CN,2020-02-22 21:02:36,clear sky,0,0
268,Ndele,8.41,20.65,84.06,14,21,9.1,CF,2020-02-22 21:02:36,few clouds,0,0
269,Avera,33.19,-82.53,57.0,28,1,4.7,US,2020-02-22 21:02:37,clear sky,0,0
270,Sobolevo,54.43,31.9,33.35,95,100,26.19,RU,2020-02-22 21:02:37,light snow,0,1.5
271,Leshukonskoye,64.9,45.76,33.04,82,100,16.71,RU,2020-02-22 21:02:37,overcast clouds,0,0
272,Almaznyy,48.04,40.05,33.8,100,75,4.47,RU,2020-02-22 21:02:37,light rain,0,0
273,Peniche,39.36,-9.38,64.0,55,0,8.05,PT,2020-02-22 21:02:05,clear sky,0,0
274,Luwuk,-0.95,122.79,81.88,77,37,12.53,ID,2020-02-22 20:59:40,scattered clouds,0,0
275,Iberia,29.95,-91.75,60.01,50,1,2.1,US,2020-02-22 21:02:38,clear sky,0,0
276,Hithadhoo,-0.6,73.08,82.15,81,89,14.03,MV,2020-02-22 20:53:39,overcast clouds,0,0
277,Maridi,4.92,29.47,81.45,33,92,4.92,SS,2020-02-22 21:02:38,overcast clouds,0,0
278,Camana,-16.62,-72.71,71.46,73,58,10.76,PE,2020-02-22 21:01:38,broken clouds,0,0
279,Jumla,29.27,82.18,30.7,70,99,3.78,NP,2020-02-22 21:02:39,overcast clouds,0,0
280,Matay,28.42,30.78,51.85,58,0,6.11,EG,2020-02-22 21:02:39,clear sky,0,0
281,Chara,56.91,118.26,0.99,85,100,0.78,RU,2020-02-22 21:02:39,overcast clouds,0,0
282,Burnie,-41.07,145.92,57.99,90,35,5.01,AU,2020-02-22 21:02:39,scattered clouds,0,0
283,Ixtapa,20.7,-105.2,84.2,62,5,6.93,MX,2020-02-22 21:02:39,clear sky,0,0
284,Mount Gambier,-37.83,140.77,46.4,93,40,3.33,AU,2020-02-22 20:54:03,scattered clouds,0,0
285,Sao Jose Da Coroa Grande,-8.9,-35.15,82.13,80,70,14.45,BR,2020-02-22 21:02:40,broken clouds,0,0
286,Abyek,36.07,50.55,42.8,87,48,4.7,IR,2020-02-22 21:02:40,light rain,0.75,0
287,Manado,1.49,124.85,71.44,98,100,1.99,ID,2020-02-22 21:02:40,light rain,1.81,0
288,Port Hedland,-20.32,118.57,78.8,83,46,5.82,AU,2020-02-22 21:02:40,scattered clouds,0,0
289,Jaguarao,-32.57,-53.38,69.62,54,65,9.04,BR,2020-02-22 21:02:40,broken clouds,0,0
290,Severo-Yeniseyskiy,60.37,93.04,8.76,96,66,3.31,RU,2020-02-22 21:02:41,broken clouds,0,0
291,Hobbs,32.7,-103.14,66.0,39,1,10.29,US,2020-02-22 21:02:41,clear sky,0,0
292,Bud,39.45,-86.18,50.0,24,1,10.29,US,2020-02-22 21:02:41,clear sky,0,0
293,Popondetta,-8.75,148.25,74.8,90,85,2.33,PG,2020-02-22 20:58:04,overcast clouds,0,0
294,Luderitz,-26.65,15.16,66.2,77,0,19.46,NA,2020-02-22 21:02:41,clear sky,0,0
295,Palmas De Monte Alto,-14.27,-43.16,78.33,75,100,1.68,BR,2020-02-22 21:02:41,overcast clouds,0,0
296,Vanersborg,58.38,12.32,44.01,65,30,21.92,SE,2020-02-22 21:02:42,scattered clouds,0,0
297,Eirunepe,-6.66,-69.87,80.06,92,100,4.79,BR,2020-02-22 21:02:42,moderate rain,6.25,0
298,Oranjemund,-28.55,16.43,64.6,85,0,14.34,NA,2020-02-22 21:02:42,clear sky,0,0
299,Raudeberg,61.99,5.14,41.0,80,100,16.11,NO,2020-02-22 21:02:42,light rain,1.69,0
300,Olenegorsk,68.15,33.3,30.04,95,100,3.33,RU,2020-02-22 21:02:44,overcast clouds,0,0
301,Takoradi,4.88,-1.76,79.57,89,78,5.95,GH,2020-02-22 21:02:45,broken clouds,0,0
302,Talnakh,69.49,88.4,10.4,85,100,26.84,RU,2020-02-22 21:02:45,light snow,0,0
303,Abha,18.22,42.51,64.4,29,55,11.41,SA,2020-02-22 21:02:45,broken clouds,0,0
304,Wahlern,46.83,7.35,48.99,81,100,6.93,CH,2020-02-22 21:02:45,overcast clouds,0,0
305,Mundo Nuevo,18.7,-95.5,71.33,81,88,12.73,MX,2020-02-22 21:02:45,overcast clouds,0,0
306,Abnub,27.27,31.15,53.6,62,0,9.17,EG,2020-02-22 21:02:46,clear sky,0,0
307,Ripoll,42.2,2.19,50.0,93,0,2.24,ES,2020-02-22 21:02:46,clear sky,0,0
308,Diffa,13.32,12.61,75.25,13,1,13.47,NE,2020-02-22 21:02:46,clear sky,0,0
309,Langxiang,46.95,128.88,-2.47,95,0,4.5,CN,2020-02-22 21:02:46,clear sky,0,0
310,Olafsvik,64.89,-23.71,28.99,70,100,5.37,IS,2020-02-22 20:50:02,overcast clouds,0,0
311,Nanakuli,21.39,-158.15,77.0,94,75,3.36,US,2020-02-22 21:02:47,light rain,0,0
312,Pedro Juan Caballero,-22.55,-55.73,77.0,36,81,11.41,PY,2020-02-22 21:02:47,broken clouds,0,0
313,Gizo,-8.1,156.84,78.53,84,78,3.71,SB,2020-02-22 21:02:47,broken clouds,0,0
314,Sao Joao Da Barra,-21.64,-41.05,77.0,78,90,20.8,BR,2020-02-22 21:01:13,overcast clouds,0,0
315,Talara,-4.58,-81.27,62.6,100,40,12.75,PE,2020-02-22 21:01:15,scattered clouds,0,0
316,Sambir,49.52,23.2,42.01,60,100,13.42,UA,2020-02-22 21:02:48,overcast clouds,0,0
317,Bocaiuva,-17.11,-43.81,86.0,51,40,6.93,BR,2020-02-22 21:02:48,shower rain,0,0
318,Zheleznodorozhnyy,55.75,38.0,37.99,74,97,13.42,RU,2020-02-22 21:02:48,overcast clouds,0,0
319,Soe,-9.86,124.28,75.15,82,47,2.28,ID,2020-02-22 21:02:49,scattered clouds,0,0
320,Siyabuswa,-25.11,29.04,74.71,76,100,1.32,ZA,2020-02-22 21:02:49,light rain,0.38,0
321,Porto Nacional,-10.71,-48.42,80.17,87,100,0.69,BR,2020-02-22 21:02:49,moderate rain,3.63,0
322,Le Pradet,43.11,6.02,54.0,87,0,10.22,FR,2020-02-22 21:02:49,clear sky,0,0
323,Vestmannaeyjar,63.44,-20.27,34.2,60,100,5.57,IS,2020-02-22 21:02:49,overcast clouds,0,0
324,Kushima,31.46,131.23,44.01,75,0,11.99,JP,2020-02-22 21:02:50,clear sky,0,0
325,Katwijk,52.19,4.42,51.8,81,20,19.46,NL,2020-02-22 21:02:50,few clouds,0,0
326,Pierre,44.37,-100.35,50.0,37,1,8.05,US,2020-02-22 20:54:39,clear sky,0,0
327,Rudbar,30.15,62.6,68.38,33,24,7.14,AF,2020-02-22 21:02:50,few clouds,0,0
328,Danielskuil,-28.19,23.54,66.43,46,73,5.97,ZA,2020-02-22 21:02:50,broken clouds,0,0
329,Davila,18.47,120.58,74.43,73,0,23.31,PH,2020-02-22 21:02:50,clear sky,0,0
330,Pyapon,16.28,95.68,68.5,61,0,4.85,MM,2020-02-22 21:02:51,clear sky,0,0
331,Sechura,-5.56,-80.82,74.28,88,33,14.97,PE,2020-02-22 21:02:51,scattered clouds,0,0
332,Shinshiro,34.9,137.5,48.2,61,40,18.34,JP,2020-02-22 21:02:51,scattered clouds,0,0
333,Manavalakurichi,8.13,77.3,80.6,78,40,3.36,IN,2020-02-22 21:02:51,mist,0,0
334,Bandarbeyla,9.49,50.81,76.86,78,25,17.81,SO,2020-02-22 21:02:52,scattered clouds,0,0
335,Turochak,52.26,87.12,24.15,97,100,2.35,RU,2020-02-22 21:02:52,light snow,0,1.31
336,Scobinti,47.38,26.93,36.0,80,33,11.41,RO,2020-02-22 21:02:52,scattered clouds,0,0
337,Udachnyy,66.42,112.4,-9.4,83,97,6.71,RU,2020-02-22 21:02:52,overcast clouds,0,0
338,Coquimbo,-29.95,-71.34,66.2,72,20,12.75,CL,2020-02-22 21:02:52,few clouds,0,0
339,Fare,-16.7,-151.02,82.36,73,22,9.53,PF,2020-02-22 21:02:53,light rain,0.56,0
340,Lumby,50.25,-118.97,48.99,65,20,8.05,CA,2020-02-22 21:02:53,few clouds,0,0
341,Le Port,-20.94,55.29,75.2,78,100,5.82,RE,2020-02-22 21:02:53,overcast clouds,0,0
342,Liverpool,53.41,-2.98,48.0,81,75,12.75,GB,2020-02-22 20:51:21,broken clouds,0,0
343,Xuddur,4.12,43.89,76.86,67,0,12.73,SO,2020-02-22 21:02:53,clear sky,0,0
344,Parabel,58.7,81.48,4.5,95,61,5.68,RU,2020-02-22 21:02:53,broken clouds,0,0
345,Cabo San Lucas,22.89,-109.91,84.99,30,20,9.17,MX,2020-02-22 21:02:39,few clouds,0,0
346,Valleyview,55.07,-117.29,30.88,63,0,14.92,CA,2020-02-22 21:02:54,clear sky,0,0
347,Abbotsford,49.06,-122.25,46.99,93,90,10.29,CA,2020-02-22 21:01:57,light intensity shower rain,0,0
348,Sitka,57.05,-135.33,35.6,80,75,9.17,US,2020-02-22 21:02:54,broken clouds,0,0
349,Ratnagiri,16.98,73.3,70.95,52,0,2.37,IN,2020-02-22 21:02:54,clear sky,0,0
350,Bauchi,10.5,10.0,76.12,18,73,7.67,NG,2020-02-22 21:02:55,broken clouds,0,0
351,Half Moon Bay,37.46,-122.43,69.8,62,40,16.11,US,2020-02-22 21:02:55,scattered clouds,0,0
352,Price,39.6,-110.81,48.99,24,1,3.83,US,2020-02-22 21:02:55,clear sky,0,0
353,Sept-Iles,50.2,-66.38,34.0,69,75,11.41,CA,2020-02-22 20:58:02,broken clouds,0,0
354,Los Mochis,25.77,-108.97,86.0,32,90,4.7,MX,2020-02-22 21:00:00,overcast clouds,0,0
355,Troitskoye,52.98,84.68,20.79,94,100,5.39,RU,2020-02-22 21:02:56,overcast clouds,0,0
356,Nuuk,64.18,-51.72,14.0,72,90,13.87,GL,2020-02-22 20:58:24,light shower snow,0,0
357,Howard Springs,-12.5,131.05,86.0,83,75,10.29,AU,2020-02-22 21:02:57,broken clouds,0,0
358,Coracao De Jesus,-16.69,-44.37,86.0,51,40,6.93,BR,2020-02-22 21:02:57,shower rain,0,0
359,Port Lincoln,-34.73,135.87,64.6,82,0,6.15,AU,2020-02-22 21:02:57,clear sky,0,0
360,Rewa,24.53,81.3,64.58,80,0,0.56,IN,2020-02-22 21:02:57,light rain,0.13,0
361,Fortuna,40.6,-124.16,60.01,81,90,6.93,US,2020-02-22 20:59:58,overcast clouds,0,0
362,Pisco,-13.7,-76.22,77.0,30,20,9.17,PE,2020-02-22 21:02:48,few clouds,0,0
363,Ostrovnoy,68.05,39.51,33.8,95,100,35.61,RU,2020-02-22 20:50:56,light snow,0,0.31
364,Lavrentiya,65.58,-171.0,-17.19,96,33,5.91,RU,2020-02-22 21:02:58,scattered clouds,0,0
365,Gombong,-7.61,109.51,74.89,91,89,1.54,ID,2020-02-22 20:58:42,overcast clouds,0,0
366,Shetpe,44.17,52.12,39.65,67,100,8.16,KZ,2020-02-22 21:02:58,overcast clouds,0,0
367,Khromtau,50.25,58.43,11.21,96,77,3.44,KZ,2020-02-22 21:02:59,broken clouds,0,0
368,Soroca,48.16,28.3,32.0,85,18,5.99,MD,2020-02-22 21:02:59,few clouds,0,0
369,La Palma,33.85,-118.05,66.0,67,90,9.51,US,2020-02-22 21:02:59,moderate rain,0,0
370,Vysokogornyy,50.12,139.15,6.26,96,97,2.68,RU,2020-02-22 21:02:59,overcast clouds,0,0
371,Bowen,-20.02,148.23,77.0,94,90,9.17,AU,2020-02-22 21:02:27,overcast clouds,0,0
372,Linxi,39.7,118.43,33.37,55,0,8.9,CN,2020-02-22 21:02:59,clear sky,0,0
373,Pontes E Lacerda,-15.23,-59.34,63.1,98,100,2.46,BR,2020-02-22 21:03:00,moderate rain,8.5,0
374,Nyurba,63.28,118.33,-6.21,98,100,1.48,RU,2020-02-22 21:03:00,overcast clouds,0,0
375,Lobito,-12.35,13.55,80.4,76,100,4.12,AO,2020-02-22 21:03:00,overcast clouds,0,0
376,Chalchihuites,23.48,-103.88,70.92,33,97,16.11,MX,2020-02-22 21:03:00,overcast clouds,0,0
377,Pucallpa,-8.38,-74.55,35.6,100,75,10.29,PE,2020-02-22 21:03:00,light intensity drizzle,0,0
378,Lodwar,3.12,35.6,89.74,36,34,18.21,KE,2020-02-22 21:02:05,scattered clouds,0,0
379,Hope,33.67,-93.59,53.01,39,90,3.36,US,2020-02-22 21:00:29,overcast clouds,0,0
380,Westport,41.14,-73.36,51.01,36,1,12.75,US,2020-02-22 21:03:01,clear sky,0,0
381,Ransang,8.96,117.58,78.89,76,0,17.13,PH,2020-02-22 21:03:01,clear sky,0,0
382,Derzhavinsk,51.1,66.32,24.3,88,100,2.93,KZ,2020-02-22 21:03:01,overcast clouds,0,0
383,Rizhao,35.43,119.46,35.51,69,0,5.5,CN,2020-02-22 21:03:02,clear sky,0,0
384,Saint-Philippe,-21.36,55.77,75.2,69,100,4.7,RE,2020-02-22 21:03:02,light rain,0.31,0
385,Isla,15.89,120.3,64.99,78,56,5.3,PH,2020-02-22 21:03:02,broken clouds,0,0
386,Limbang,4.75,115.0,78.8,83,75,5.82,MY,2020-02-22 21:03:02,broken clouds,0,0
387,Kitami,43.8,143.89,29.05,77,1,8.46,JP,2020-02-22 21:03:02,clear sky,0,0
388,Kalmunai,7.42,81.82,80.53,82,92,17.11,LK,2020-02-22 21:03:02,light rain,0.13,0
389,Hambantota,6.12,81.12,79.25,83,100,22.68,LK,2020-02-22 20:53:35,overcast clouds,0,0
390,Rio Gallegos,-51.62,-69.22,73.4,40,34,19.46,AR,2020-02-22 21:03:03,scattered clouds,0,0
391,Adamantina,-21.69,-51.07,73.4,100,40,2.24,BR,2020-02-22 20:59:52,scattered clouds,0,0
392,Vila Franca Do Campo,37.72,-25.43,57.2,76,20,4.7,PT,2020-02-22 21:03:04,few clouds,0,0
393,Gat,31.61,34.76,53.01,93,75,2.24,IL,2020-02-22 20:49:16,broken clouds,0,0
394,Korla,41.76,86.15,25.97,49,0,2.86,CN,2020-02-22 21:03:04,clear sky,0,0
395,Makat,47.65,53.35,29.3,84,0,9.44,KZ,2020-02-22 21:03:04,clear sky,0,0
396,Belyy Yar,53.6,91.39,17.6,92,40,4.47,RU,2020-02-22 21:03:04,scattered clouds,0,0
397,Huittinen,61.17,22.75,35.6,87,90,23.04,FI,2020-02-22 21:03:05,light rain and snow,0,0
398,Xining,36.62,101.77,26.65,25,0,5.79,CN,2020-02-22 21:03:03,clear sky,0,0
399,Anchorage,61.22,-149.9,23.0,85,40,6.93,US,2020-02-22 21:00:00,light snow,0,0
400,Khorixas,-20.37,14.97,77.2,45,0,7.0,NA,2020-02-22 21:03:05,clear sky,0,0
401,Clyde River,70.47,-68.59,-23.8,74,1,6.93,CA,2020-02-22 21:02:20,clear sky,0,0
402,Micheweni,-4.97,39.83,83.21,79,100,17.43,TZ,2020-02-22 21:03:05,overcast clouds,0,0
403,Lusambo,-4.97,23.45,77.07,74,100,2.01,CD,2020-02-22 21:03:06,overcast clouds,0,0
404,Dzhebariki-Khaya,62.22,135.8,-2.72,97,97,2.21,RU,2020-02-22 21:03:06,overcast clouds,0,0
405,Yubileynyy,58.78,57.78,30.0,96,100,3.0,RU,2020-02-22 21:03:06,light snow,0,0.44
406,Vanimo,-2.67,141.3,81.27,80,36,9.95,PG,2020-02-22 20:54:16,light rain,0.81,0
407,Sorland,67.67,12.69,40.95,77,96,19.48,NO,2020-02-22 21:03:06,light rain,0.75,0
408,Balakhta,55.38,91.6,6.37,98,97,1.25,RU,2020-02-22 21:03:07,overcast clouds,0,0
409,Port Hardy,50.7,-127.42,42.8,87,40,10.29,CA,2020-02-22 21:03:07,scattered clouds,0,0
410,Monrovia,6.3,-10.8,80.6,83,20,9.04,LR,2020-02-22 21:03:07,few clouds,0,0
411,Ngunguru,-35.62,174.5,63.0,74,18,5.99,NZ,2020-02-22 20:59:32,few clouds,0,0
412,Isangel,-19.55,169.27,78.8,83,20,16.35,VU,2020-02-22 20:55:00,few clouds,0,0
413,Eureka,40.8,-124.16,54.0,81,90,6.93,US,2020-02-22 21:01:54,overcast clouds,0,0
414,Bardstown,37.81,-85.47,53.01,21,1,5.82,US,2020-02-22 21:03:08,clear sky,0,0
415,Buin,-33.73,-70.75,82.4,34,0,10.29,CL,2020-02-22 21:03:08,clear sky,0,0
416,Hay River,60.82,-115.8,6.8,71,75,6.93,CA,2020-02-22 20:59:04,broken clouds,0,0
417,Fenoarivo,-18.93,47.44,66.2,93,75,5.82,MG,2020-02-22 21:03:08,light rain,0,0
418,Paamiut,61.99,-49.67,16.95,89,100,14.63,GL,2020-02-22 21:03:08,overcast clouds,0,0
419,Seryshevo,51.09,128.38,-7.29,100,30,0.34,RU,2020-02-22 21:03:08,scattered clouds,0,0
420,Te Anau,-45.42,167.72,51.8,74,60,2.51,NZ,2020-02-22 21:03:09,broken clouds,0,0
421,Tumsar,21.38,79.73,69.84,57,7,3.74,IN,2020-02-22 21:03:09,clear sky,0,0
422,Dingle,11.0,122.67,70.03,90,0,11.03,PH,2020-02-22 21:03:09,clear sky,0,0
423,Namatanai,-3.67,152.43,83.48,75,79,3.67,PG,2020-02-22 21:03:09,broken clouds,0,0
424,Antibes,43.56,7.13,51.8,71,0,8.05,FR,2020-02-22 21:03:09,clear sky,0,0
425,Naron,43.52,-8.15,52.0,93,1,4.7,ES,2020-02-22 21:03:10,clear sky,0,0
426,Kudahuvadhoo,2.67,72.89,82.72,75,100,9.08,MV,2020-02-22 21:03:10,overcast clouds,0,0
427,Ilheus,-14.79,-39.05,86.0,79,20,8.05,BR,2020-02-22 20:59:21,few clouds,0,0
428,Chifeng,42.27,118.96,17.08,65,94,7.34,CN,2020-02-22 21:03:10,overcast clouds,0,0
429,Saquarema,-22.92,-42.51,78.8,78,75,13.87,BR,2020-02-22 21:03:10,broken clouds,0,0
430,Excelsior Springs,39.34,-94.23,54.0,40,1,12.75,US,2020-02-22 21:03:10,clear sky,0,0
431,Byron Bay,-28.65,153.62,70.0,88,75,5.82,AU,2020-02-22 20:58:46,broken clouds,0,0
432,Saint-Joseph,-21.37,55.62,75.2,69,100,4.7,RE,2020-02-22 21:01:27,overcast clouds,0,0
433,That Phanom,16.94,104.71,63.0,79,0,6.49,TH,2020-02-22 21:03:11,clear sky,0,0
434,Porbandar,21.64,69.61,75.88,49,0,8.77,IN,2020-02-22 20:54:06,clear sky,0,0
435,Pangnirtung,66.15,-65.71,-31.0,59,5,2.48,CA,2020-02-22 21:03:12,clear sky,0,0
436,Caravelas,-17.71,-39.25,81.5,84,94,15.95,BR,2020-02-22 21:03:10,overcast clouds,0,0
437,Zhigansk,66.77,123.37,-10.16,96,100,7.16,RU,2020-02-22 21:03:12,overcast clouds,0,0
438,Pochutla,15.74,-96.47,93.2,41,20,6.93,MX,2020-02-22 21:03:12,few clouds,0,0
439,Sharjah,25.36,55.4,75.2,78,0,5.82,AE,2020-02-22 21:01:31,clear sky,0,0
440,Kargasok,59.06,80.86,-0.56,94,0,7.47,RU,2020-02-22 21:03:13,clear sky,0,0
441,Manzanillo,20.34,-77.12,82.99,54,40,12.93,CU,2020-02-22 21:03:13,light rain,0.19,0
442,Kavieng,-2.57,150.8,83.43,73,13,5.53,PG,2020-02-22 21:00:54,few clouds,0,0
443,Latung,5.5,120.88,81.7,67,100,6.67,PH,2020-02-22 21:03:13,overcast clouds,0,0
444,Salalah,17.02,54.09,75.2,73,20,3.36,OM,2020-02-22 21:01:03,few clouds,0,0
445,Praia,14.92,-23.51,71.6,68,75,24.16,CV,2020-02-22 21:02:26,broken clouds,0,0
446,Alyangula,-13.85,136.42,78.8,94,75,8.05,AU,2020-02-22 21:03:14,heavy intensity shower rain,0,0
447,Karpogory,64.0,44.45,33.39,84,100,16.87,RU,2020-02-22 21:03:14,overcast clouds,0,0
448,Turayf,31.67,38.66,46.4,87,0,9.17,SA,2020-02-22 21:03:14,clear sky,0,0
449,Esperance,-33.87,121.9,66.2,82,75,6.93,AU,2020-02-22 20:53:47,broken clouds,0,0
450,Kloulklubed,7.04,134.26,77.0,94,90,5.82,PW,2020-02-22 21:02:40,overcast clouds,0,0
451,Viedma,-40.81,-63.0,78.15,26,0,1.1,AR,2020-02-22 20:58:38,clear sky,0,0
452,Pitimbu,-7.47,-34.81,84.2,79,20,10.29,BR,2020-02-22 21:03:15,few clouds,0,0
453,Severodvinsk,64.56,39.83,35.6,74,90,17.9,RU,2020-02-22 21:03:15,overcast clouds,0,0
454,Pachino,36.72,15.09,46.4,70,20,3.36,IT,2020-02-22 21:03:15,few clouds,0,0
455,Gebre Guracha,9.8,38.4,66.79,40,0,4.85,ET,2020-02-22 21:03:16,clear sky,0,0
456,Mayumba,-3.43,10.66,82.89,81,100,11.68,GA,2020-02-22 21:03:16,light rain,1.5,0
457,Miramar,25.99,-80.23,75.2,64,75,12.75,US,2020-02-22 20:58:27,broken clouds,0,0
458,Port Keats,-14.25,129.55,84.13,84,41,11.1,AU,2020-02-22 20:59:39,scattered clouds,0,0
459,Mubi,10.27,13.26,71.67,18,0,6.87,NG,2020-02-22 21:03:17,clear sky,0,0
460,Casablanca,33.59,-7.62,64.4,63,0,4.7,MA,2020-02-22 21:00:48,clear sky,0,0
461,Ikalamavony,-21.15,46.58,69.78,91,100,4.38,MG,2020-02-22 21:03:18,moderate rain,4.13,0
462,Luganville,-15.53,167.17,75.2,100,20,1.12,VU,2020-02-22 21:03:18,few clouds,0,0
463,Lubango,-14.92,13.49,63.88,54,100,3.51,AO,2020-02-22 21:03:18,overcast clouds,0,0
464,Beringovskiy,63.05,179.32,-9.99,92,18,5.1,RU,2020-02-22 21:03:18,few clouds,0,0
465,Lokosovo,61.13,74.82,3.81,88,7,6.42,RU,2020-02-22 21:03:18,clear sky,0,0
466,Toma,12.77,-2.88,83.82,10,1,11.48,BF,2020-02-22 21:03:18,clear sky,0,0
467,Pangai,-19.8,-174.35,80.04,87,57,9.75,TO,2020-02-22 21:03:19,light rain,0.44,0
468,Naze,28.37,129.48,60.8,59,75,13.87,JP,2020-02-22 21:03:19,broken clouds,0,0
469,Weatherford,32.76,-97.8,57.99,47,90,12.75,US,2020-02-22 21:03:19,overcast clouds,0,0
470,Saint-Francois,46.42,3.91,39.2,80,97,3.36,FR,2020-02-22 21:03:19,overcast clouds,0,0
471,Tabou,4.42,-7.35,78.24,93,98,4.65,CI,2020-02-22 21:03:20,overcast clouds,0,0
472,Lata,40.16,-8.33,59.0,82,0,3.36,PT,2020-02-22 21:03:20,clear sky,0,0
473,Taywarah,33.35,64.42,25.18,62,33,4.76,AF,2020-02-22 21:03:20,scattered clouds,0,0
474,Kampene,-3.6,26.67,73.04,93,100,1.34,CD,2020-02-22 21:03:20,light rain,1.75,0
475,Yulara,-25.24,130.99,68.0,20,0,5.82,AU,2020-02-22 21:03:20,clear sky,0,0
476,Saint-Georges,12.06,-61.75,82.4,69,75,11.41,GD,2020-02-22 21:00:17,broken clouds,0,0
477,Lengshuijiang,27.69,111.43,48.42,91,87,2.17,CN,2020-02-22 21:03:21,overcast clouds,0,0
478,Paraiso,9.84,-83.87,82.4,44,20,20.8,CR,2020-02-22 21:03:21,few clouds,0,0
479,Yeppoon,-23.13,150.73,75.2,78,100,9.17,AU,2020-02-22 21:03:21,overcast clouds,0,0
480,Marica,-22.92,-42.82,73.4,88,90,18.34,BR,2020-02-22 21:00:47,light rain,0,0
481,Mana,5.66,-53.78,81.18,76,100,6.67,GF,2020-02-22 21:03:21,light rain,0.19,0
482,Martapura,-3.42,114.85,73.81,90,40,1.63,ID,2020-02-22 21:03:22,scattered clouds,0,0
483,Jaciara,-15.97,-54.97,73.08,97,100,1.79,BR,2020-02-22 20:58:49,light rain,2.5,0
484,Ulladulla,-35.35,150.47,66.0,100,18,4.7,AU,2020-02-22 21:03:22,few clouds,0,0
485,Doha,25.29,51.53,69.01,88,0,4.7,QA,2020-02-22 20:59:23,clear sky,0,0
486,Kurayoshi,35.43,133.82,44.6,52,75,13.87,JP,2020-02-22 21:00:50,broken clouds,0,0
487,Nanortalik,60.14,-45.24,27.57,89,100,17.9,GL,2020-02-22 21:03:23,snow,0,2.13
488,Lumberton,34.62,-79.01,55.99,29,1,2.98,US,2020-02-22 21:01:48,clear sky,0,0
489,Chikitigarh,19.2,84.62,64.62,60,0,2.57,IN,2020-02-22 21:03:23,clear sky,0,0
490,Harper,4.38,-7.72,78.24,93,98,4.65,LR,2020-02-22 21:03:23,overcast clouds,0,0
491,Ponferrada,42.55,-6.6,48.99,40,12,3.04,ES,2020-02-22 21:01:28,few clouds,0,0
492,Bac Lieu,9.29,105.72,75.15,67,7,10.65,VN,2020-02-22 21:03:23,clear sky,0,0
493,Donskoye,45.46,41.97,32.0,82,90,8.95,RU,2020-02-22 21:03:24,mist,0,0
494,Pasighat,28.07,95.33,65.68,62,100,1.25,IN,2020-02-22 21:03:24,light rain,0.13,0
495,Yumen,40.28,97.2,29.14,38,0,5.77,CN,2020-02-22 21:03:24,clear sky,0,0
496,Laguna,38.42,-121.42,72.0,34,1,3.36,US,2020-02-22 21:03:24,clear sky,0,0
497,Gunjur,13.2,-16.73,75.2,73,95,9.17,GM,2020-02-22 21:03:24,overcast clouds,0,0
498,Olden,61.84,6.81,39.0,82,69,5.99,NO,2020-02-22 21:03:24,light snow,0,0.63
499,Grand Gaube,-20.01,57.66,77.0,88,40,2.24,MU,2020-02-22 21:03:25,scattered clouds,0,0
500,Seka,17.93,103.96,60.44,85,0,4.94,TH,2020-02-22 21:03:25,clear sky,0,0
501,Xaltianguis,17.07,-99.83,86.0,70,5,8.05,MX,2020-02-22 21:03:25,clear sky,0,0
502,Shitanjing,39.23,106.34,29.32,34,0,1.72,CN,2020-02-22 21:03:25,clear sky,0,0
503,Saint Anthony,45.02,-93.22,45.0,60,1,6.93,US,2020-02-22 21:02:32,clear sky,0,0
504,Biltine,14.53,20.92,73.47,10,0,14.5,TD,2020-02-22 21:03:25,clear sky,0,0
505,Maningrida,-12.07,134.27,84.2,76,100,19.19,AU,2020-02-22 21:03:26,light rain,0.75,0
506,Muravlenko,63.79,74.52,9.07,85,97,22.79,RU,2020-02-22 21:03:26,overcast clouds,0,0
507,Nurota,40.56,65.69,37.4,93,100,7.11,UZ,2020-02-22 21:02:49,overcast clouds,0,0
508,Muzhi,65.37,64.67,24.78,84,0,16.93,RU,2020-02-22 21:03:26,clear sky,0,0
509,Stony Plain,53.53,-114.0,37.99,50,20,16.11,CA,2020-02-22 21:01:56,few clouds,0,0
510,Tiarei,-17.53,-149.33,87.8,66,40,10.29,PF,2020-02-22 21:03:26,shower rain,0,0
511,Sioux Lookout,50.1,-91.92,39.2,48,75,6.93,CA,2020-02-22 21:02:21,broken clouds,0,0
512,Toppenish,46.38,-120.31,55.99,37,1,0.76,US,2020-02-22 21:03:27,clear sky,0,0
513,Rajanpur,29.1,70.33,61.07,55,0,1.28,PK,2020-02-22 21:03:27,clear sky,0,0
514,Bogande,12.97,-0.14,81.77,13,18,9.82,BF,2020-02-22 21:03:27,few clouds,0,0
515,Bodden Town,19.28,-81.25,78.8,69,75,9.17,KY,2020-02-22 20:59:52,broken clouds,0,0
516,Kyaikto,17.3,97.02,70.61,47,0,2.33,MM,2020-02-22 21:03:28,clear sky,0,0
517,Hovd,48.01,91.64,17.78,64,100,2.91,MN,2020-02-22 21:03:28,overcast clouds,0,0
518,Jerecuaro,20.15,-100.52,79.0,29,40,3.36,MX,2020-02-22 21:03:28,scattered clouds,0,0
519,Nioro,13.35,-15.75,81.19,32,58,8.9,GM,2020-02-22 21:03:28,broken clouds,0,0
520,Yashkul,46.17,45.34,36.36,71,100,7.23,RU,2020-02-22 21:03:29,overcast clouds,0,0
521,Suibara,37.83,139.23,41.0,84,75,1.99,JP,2020-02-22 21:03:29,light rain,0.75,0
522,Bushehr,28.97,50.84,59.0,82,0,3.6,IR,2020-02-22 21:03:29,mist,0,0
523,Noumea,-22.28,166.46,80.01,65,0,1.12,NC,2020-02-22 21:00:49,clear sky,0,0
524,Shimoda,34.67,138.95,51.01,63,0,1.99,JP,2020-02-22 21:03:29,clear sky,0,0
525,Progreso,21.28,-89.67,78.01,47,75,11.41,MX,2020-02-22 21:03:29,broken clouds,0,0
526,Sampit,-2.53,112.95,73.81,94,100,0.11,ID,2020-02-22 21:03:30,overcast clouds,0,0
527,Ballina,-28.87,153.57,75.2,73,98,6.93,AU,2020-02-22 21:03:30,light rain,0.25,0
528,Saint-Paul,-21.01,55.27,75.2,78,100,5.82,RE,2020-02-22 21:03:30,overcast clouds,0,0
529,Sao Domingos,-13.4,-46.32,79.57,76,50,1.61,BR,2020-02-22 21:03:30,scattered clouds,0,0
530,Shumskiy,54.83,99.13,13.35,95,100,2.48,RU,2020-02-22 21:03:30,light snow,0,0.25
531,Namwala,-15.75,26.44,69.98,89,87,1.74,ZM,2020-02-22 21:03:30,overcast clouds,0,0
532,Tilichiki,60.47,166.1,-14.67,92,0,3.0,RU,2020-02-22 21:03:31,clear sky,0,0
533,Gadwal,16.23,77.8,67.77,73,0,7.76,IN,2020-02-22 21:03:31,clear sky,0,0
534,Quatre Cocos,-20.21,57.76,77.0,88,40,2.24,MU,2020-02-22 21:03:31,scattered clouds,0,0
535,Semnan,35.57,53.4,49.12,63,0,2.21,IR,2020-02-22 21:03:31,clear sky,0,0
536,Brainerd,46.36,-94.2,41.0,44,1,4.7,US,2020-02-22 21:03:32,clear sky,0,0
537,Santa Vitoria Do Palmar,-33.52,-53.37,67.87,62,31,11.77,BR,2020-02-22 21:03:32,scattered clouds,0,0
538,Cayenne,4.93,-52.33,82.4,78,75,9.17,GF,2020-02-22 20:54:18,broken clouds,0,0
539,Tambacounda,13.75,-13.76,96.8,13,64,4.7,SN,2020-02-22 21:03:32,broken clouds,0,0
540,Dekar,-21.53,21.93,76.44,54,14,2.08,BW,2020-02-22 21:03:32,few clouds,0,0
541,Tahe,52.33,124.73,5.22,92,96,2.68,CN,2020-02-22 21:03:33,overcast clouds,0,0
542,Soltsy,58.12,30.32,37.76,88,100,22.68,RU,2020-02-22 21:03:33,light rain,1.31,0
543,Bellavista,-7.06,-76.59,78.8,83,90,3.36,PE,2020-02-22 21:03:33,overcast clouds,0,0
544,Vieux-Habitants,16.06,-61.77,80.6,69,2,8.05,GP,2020-02-22 21:03:33,light rain,0.25,0
545,Lucapa,-8.42,20.74,71.22,89,100,0.51,AO,2020-02-22 21:03:33,overcast clouds,0,0
546,Broken Hill,-31.95,141.43,66.2,34,0,4.7,AU,2020-02-22 21:03:34,clear sky,0,0
547,Pimentel,-6.84,-79.93,66.2,29,87,13.87,PE,2020-02-22 21:03:34,overcast clouds,0,0
548,Omboue,-1.57,9.26,75.92,95,48,1.72,GA,2020-02-22 20:54:43,scattered clouds,0,0
549,Raymond,43.9,-70.47,43.0,38,1,9.17,US,2020-02-22 21:03:34,light rain,0,0
550,Nakusp,50.25,-117.8,36.0,86,95,4.36,CA,2020-02-22 21:03:35,light snow,0,0.56
551,Bazarnyye Mataki,54.88,49.93,28.67,91,100,9.91,RU,2020-02-22 21:03:35,overcast clouds,0,0
552,Ocampo,21.65,-101.5,72.64,28,4,8.25,MX,2020-02-22 21:03:35,clear sky,0,0
553,Kulhudhuffushi,6.62,73.07,83.64,75,94,16.87,MV,2020-02-22 21:03:35,overcast clouds,0,0
554,Vila Do Maio,15.13,-23.22,71.6,68,75,24.16,CV,2020-02-22 21:03:35,broken clouds,0,0
555,Ust-Kuyga,70.02,135.6,-13.22,100,83,1.68,RU,2020-02-22 21:03:36,broken clouds,0,0
556,Batesville,35.77,-91.64,53.01,27,1,8.05,US,2020-02-22 21:03:36,clear sky,0,0
557,Syamzha,60.02,41.06,33.78,81,100,19.33,RU,2020-02-22 21:03:36,overcast clouds,0,0
558,Turbat,26.0,63.04,67.15,50,0,0.85,PK,2020-02-22 21:03:36,clear sky,0,0
559,Yulin,22.63,110.15,66.85,71,54,3.98,CN,2020-02-22 21:03:36,broken clouds,0,0
560,Ketchikan,55.34,-131.65,41.0,86,40,12.75,US,2020-02-22 21:03:36,scattered clouds,0,0
561,Abu Dhabi,24.47,54.37,71.6,88,0,5.82,AE,2020-02-22 21:00:11,haze,0,0
562,Sao Gabriel Da Cachoeira,-0.13,-67.09,88.18,63,100,3.53,BR,2020-02-22 21:03:37,light rain,1,0
563,Birao,10.28,22.79,75.24,12,0,9.24,CF,2020-02-22 21:03:37,clear sky,0,0
564,Bhunya,-26.55,31.02,64.83,97,97,1.79,SZ,2020-02-22 21:03:37,light rain,0.75,0
565,Tura,25.52,90.22,67.06,47,29,4.07,IN,2020-02-22 21:02:59,scattered clouds,0,0
566,Sakakah,29.97,40.21,53.6,50,0,4.54,SA,2020-02-22 21:03:01,clear sky,0,0
567,Varna,43.22,27.92,34.0,86,0,4.7,BG,2020-02-22 21:03:38,clear sky,0,0
568,Port Augusta,-32.5,137.77,63.0,87,0,4.7,AU,2020-02-22 21:03:38,clear sky,0,0
569,Richards Bay,-28.78,32.04,80.24,82,100,29.48,ZA,2020-02-22 21:03:38,moderate rain,3.81,0
570,Humboldt,40.67,-123.92,61.0,81,90,6.93,US,2020-02-22 21:03:38,overcast clouds,0,0
571,Itoman,26.12,127.67,62.6,67,20,11.41,JP,2020-02-22 21:03:39,few clouds,0,0
572,Phuket,8.0,98.25,80.6,69,20,12.75,TH,2020-02-22 21:03:39,few clouds,0,0
573,Mokrous,51.23,47.52,22.26,94,100,6.76,RU,2020-02-22 21:03:39,overcast clouds,0,0
574,Dongsheng,39.82,109.98,28.36,54,0,16.17,CN,2020-02-22 21:03:39,clear sky,0,0
575,Toamasina,-18.17,49.38,77.0,94,75,10.2,MG,2020-02-22 21:03:39,shower rain,0,0
576,Genc,38.75,40.56,37.71,98,100,2.62,TR,2020-02-22 21:03:40,light rain,3,0
577,Preston,53.77,-2.72,48.0,87,20,21.92,GB,2020-02-22 21:01:46,few clouds,0,0
